City_ID,City,Lat,Lng,Max Temp,Humidity,Cloudiness,Wind Speed,Country,Date
0,puerto ayora,-0.7393,-90.3518,21.42,91,84,3.58,EC,1729980976
1,gardabani,41.4605,45.0928,9.05,72,0,2.26,GE,1729980977
2,blackmans bay,-43.0167,147.3167,14.74,64,88,3.4,AU,1729980979
3,adamstown,-25.066,-130.1015,20.14,91,100,8.37,PN,1729980980
4,chifeng,42.2683,118.9636,2.49,82,14,1.56,CN,1729980982
5,touros,-5.1989,-35.4608,25.78,74,63,5.9,BR,1729980983
6,thompson,55.7435,-97.8558,2.09,51,40,2.57,CA,1729980984
7,albany,42.6001,-73.9662,11.36,38,2,2.24,US,1729980874
8,edinburgh of the seven seas,-37.0676,-12.3116,15.76,95,100,11.65,SH,1729980986
9,kruisfontein,-34.0033,24.7314,14.68,84,91,6.85,ZA,1729980987
10,port-aux-francais,-49.35,70.2167,1.73,68,33,13.21,TF,1729980988
11,berdigestyakh,62.0989,126.6992,-25.08,100,77,0.86,RU,1729980990
12,port alfred,-33.5906,26.891,17.88,82,81,3.58,ZA,1729980991
13,uddevalla,58.3478,11.9424,10.55,92,92,2.87,SE,1729980992
14,grytviken,-54.2811,-36.5092,-3.59,77,46,3.8,GS,1729980993
15,chenzhou,25.8,113.0333,14.87,98,100,1.23,CN,1729980898
16,bethel,41.3712,-73.414,14.41,41,0,3.6,US,1729980698
17,waitangi,-43.9535,-176.5597,14.9,98,100,5.36,NZ,1729980997
18,atafu village,-8.5421,-172.5159,27.88,79,99,5.59,TK,1729980998
19,maymana,35.9214,64.7836,13.15,65,98,0.34,AF,1729980999
20,barras,-4.2444,-42.2944,28.87,52,63,5.2,BR,1729981000
21,katabu,-4.9333,122.5167,24.44,86,19,0.91,ID,1729981001
22,minot,48.2325,-101.2963,15.12,33,0,3.6,US,1729980709
23,margaret river,-33.95,115.0667,9.54,88,14,2.25,AU,1729981003
24,fortuna,40.5982,-124.1573,21.66,69,28,5.53,US,1729981005
25,upata,8.0086,-62.3989,27.17,68,93,3.67,VE,1729981006
26,remire-montjoly,4.9167,-52.2667,28.02,74,0,4.63,GF,1729981007
27,queenstown,-31.8976,26.8753,12.29,86,73,1.74,ZA,1729981008
28,new richmond,45.123,-92.5366,12.27,44,0,2.06,US,1729981009
29,wailua homesteads,22.0669,-159.378,25.48,88,75,6.69,US,1729981010
30,stanley,54.868,-1.6985,10.28,89,20,4.12,GB,1729980933
31,vila do maio,15.1333,-23.2167,26.29,84,62,5.93,CV,1729981014
32,puerto natales,-51.7236,-72.4875,12.25,43,75,14.92,CL,1729981015
33,kamenka,51.3223,42.7678,2.25,76,20,2.93,RU,1729981016
34,ji'an,27.1172,114.9793,17.9,92,100,2.77,CN,1729981017
35,kasama,-10.2129,31.1808,21.32,62,100,2.29,ZM,1729980739
36,longyearbyen,78.2186,15.6401,-3.09,68,75,3.6,SJ,1729981019
37,tiksi,71.6872,128.8694,-16.8,94,100,1.13,RU,1729981022
38,groningen,53.25,6.75,13.96,91,71,1.54,NL,1729980913
39,port mathurin,-19.6833,63.4167,23.47,87,18,7.18,MU,1729981024
40,usogorsk,63.4106,48.6872,3.43,97,100,2.42,RU,1729981025
41,tsiombe,-25.3,45.4833,20.11,95,1,0.75,MG,1729981026
42,chonchi,-42.6128,-73.8092,15.07,63,93,2.2,CL,1729981027
43,ushuaia,-54.8,-68.3,8.81,61,40,7.2,AR,1729981029
44,diok'nisi,41.6293,42.3917,4.3,100,100,1.5,GE,1729981030
45,tolanaro,-25.0319,46.9987,23.04,94,40,1.03,MG,1729981031
46,ujiie,36.6833,139.9667,16.59,73,79,0.41,JP,1729981032
47,forster,-32.1667,152.5167,20.21,67,95,3.21,AU,1729981033
48,solhan,38.9634,41.0293,4.5,64,0,2.28,TR,1729981034
49,sungai penuh,-2.0833,101.3833,16.71,79,79,1.53,ID,1729980840
50,hamilton,39.1834,-84.5333,16.54,39,0,5.14,US,1729980754
51,hirara,24.8,125.2833,27.74,78,73,5.71,JP,1729980869
52,ust-nera,64.5667,143.2,-21.21,98,98,2.06,RU,1729981039
53,usinsk,65.9939,57.5281,-0.65,92,100,6.29,RU,1729981040
54,pico truncado,-46.7949,-67.9573,21.13,17,24,9.67,AR,1729981041
55,noyabrsk,63.1994,75.4507,-1.9,99,92,1.42,RU,1729981042
56,nuuk,64.1835,-51.7216,-1.66,64,20,6.17,GL,1729980915
57,hawaiian paradise park,19.5933,-154.9731,22.73,100,100,2.57,US,1729981044
58,karratha,-20.7377,116.8463,28.62,16,1,2.82,AU,1729981045
59,nolinsk,57.5596,49.9363,2.36,88,100,2.2,RU,1729981046
60,college,64.8569,-147.8028,-8.85,75,75,2.57,US,1729981048
61,rongelap,11.1635,166.8941,28.68,77,83,5.29,MH,1729981050
62,ilulissat,69.2167,-51.1,-3.99,74,40,5.66,GL,1729981051
63,homer,59.6425,-151.5483,4.32,60,0,2.06,US,1729981052
64,jamestown,42.097,-79.2353,10.01,61,75,5.36,US,1729980871
65,new norfolk,-42.7826,147.0587,15.4,68,99,1.91,AU,1729981054
66,eyl,7.9803,49.8164,26.0,83,24,4.13,SO,1729981055
67,mandiana,10.6333,-8.6833,25.71,65,10,0.55,GN,1729981056
68,vorgashor,67.5833,63.95,-3.16,94,100,6.27,RU,1729981057
69,afaahiti,-17.75,-149.2833,23.01,68,57,7.33,PF,1729981059
70,cannonvale,-20.2833,148.7,25.66,71,18,6.96,AU,1729981060
71,klyuchi,52.2667,79.1667,8.78,83,100,5.49,RU,1729981061
72,mawu,34.4307,104.9176,0.42,89,100,1.11,CN,1729981062
73,suva,-18.1416,178.4415,27.71,78,75,4.63,FJ,1729981063
74,markovo,57.3206,107.0881,1.63,99,100,1.93,RU,1729981064
75,iqaluit,63.7506,-68.5145,-1.15,80,75,2.57,CA,1729981065
76,gole,52.4,19.0967,10.27,81,4,3.09,PL,1729981066
77,olonkinbyen,70.9221,-8.7187,0.67,88,53,3.79,SJ,1729981068
78,bowen,-20.0167,148.2333,25.81,69,7,8.02,AU,1729981069
79,ketchikan,55.3422,-131.6461,9.08,87,100,3.6,US,1729981070
80,nikolayevsk-on-amure,53.1406,140.73,-5.95,84,22,1.93,RU,1729981071
81,datong,40.0936,113.2914,5.53,53,100,2.93,CN,1729980836
82,kodiak,57.79,-152.4072,7.73,61,0,3.6,US,1729981073
83,badger,64.8,-147.5333,-8.9,84,20,2.57,US,1729981074
84,west island,-12.1568,96.8225,24.99,83,75,4.12,CC,1729981075
85,yellowknife,62.456,-114.3525,-1.44,89,75,4.12,CA,1729981077
86,christchurch,-43.5333,172.6333,14.62,77,75,3.6,NZ,1729981064
87,qaqortoq,60.7167,-46.0333,-2.77,56,100,3.23,GL,1729981079
88,alotau,-10.3069,150.4462,26.75,87,61,3.4,PG,1729981080
89,carutapera,-1.195,-46.02,26.31,72,31,3.89,BR,1729981081
90,kindu,-2.95,25.95,21.14,98,62,0.93,CD,1729980972
91,happy valley-goose bay,53.3168,-60.3315,1.87,71,100,0.78,CA,1729980909
92,pekalongan,-6.8886,109.6753,25.74,74,16,2.14,ID,1729981084
93,kill devil hills,36.0307,-75.676,19.43,71,0,3.09,US,1729980953
94,berberati,4.2612,15.7922,20.74,98,81,1.34,CF,1729981087
95,richards bay,-28.783,32.0377,18.91,89,100,2.26,ZA,1729981088
96,wuxue,29.8506,115.5525,17.79,89,100,2.29,CN,1729981089
97,buncrana,55.1333,-7.45,6.96,75,35,4.0,IE,1729981090
98,tazovsky,67.4667,78.7,-17.52,99,88,2.2,RU,1729981091
99,micheweni,-4.9667,39.8333,25.51,91,99,3.25,TZ,1729981092
100,farshut,26.0549,32.1633,19.99,32,52,3.05,EG,1729981093
101,bredasdorp,-34.5322,20.0403,13.52,90,100,4.0,ZA,1729981094
102,al mahwit,15.4701,43.5448,15.94,74,93,1.16,YE,1729981095
103,lihue,21.9789,-159.3672,25.81,88,75,6.69,US,1729981097
104,yaguajay,22.3272,-79.2378,25.82,80,32,5.43,CU,1729981098
105,laojunmiao,39.8333,97.7333,5.98,36,1,1.68,CN,1729981099
106,kapuskasing,49.4169,-82.4331,3.05,70,75,3.6,CA,1729981100
107,veraval,20.9,70.3667,26.75,57,12,3.89,IN,1729981101
108,antalaha,-14.9003,50.2788,22.26,93,45,1.78,MG,1729981103
109,piti village,13.4626,144.6933,26.03,93,74,4.47,GU,1729981104
110,margate,51.3813,1.3862,12.05,90,99,4.0,GB,1729981029
111,sandnessjoen,66.0217,12.6316,8.71,70,94,11.32,NO,1729981106
112,pandan,14.0453,124.1694,26.14,84,100,1.81,PH,1729981107
113,boromo,11.75,-2.9333,29.2,39,100,1.51,BF,1729981108
114,kailua-kona,19.6406,-155.9956,30.98,70,75,4.12,US,1729981110
115,horta,38.5333,-28.6333,19.45,75,50,4.02,PT,1729981111
116,tubarjal,30.4999,38.216,17.29,66,0,3.68,SA,1729981112
117,georgetown,5.4112,100.3354,25.96,88,40,1.54,MY,1729981023
118,kefamenanu,-9.4467,124.4781,24.16,60,30,1.03,ID,1729981114
119,invercargill,-46.4,168.35,8.9,87,100,4.92,NZ,1729981115
120,mont-dore,-22.2833,166.5833,23.43,73,100,4.42,NC,1729981116
121,papatowai,-46.5619,169.4708,6.69,96,100,5.15,NZ,1729981117
122,tsengel,49.4783,100.8894,0.65,54,96,1.14,MN,1729981119
123,la passe,45.5549,-0.8967,13.58,87,100,4.33,FR,1729981120
124,port elizabeth,-33.918,25.5701,17.4,90,0,11.83,ZA,1729981121
125,fort bragg,35.139,-79.006,24.91,58,20,2.06,US,1729981122
126,abuja,9.0574,7.4898,25.08,69,15,0.53,NG,1729980948
127,martuk,50.7475,56.5056,2.67,83,25,2.96,KZ,1729981866
128,northam,51.0333,-4.2167,11.45,93,5,3.52,GB,1729981868
129,jean-rabel,19.8533,-73.1917,26.71,85,99,7.46,HT,1729981869
130,temple,31.0982,-97.3428,31.88,38,0,3.09,US,1729981703
131,port lincoln,-34.7333,135.8667,17.16,70,0,5.45,AU,1729981871
132,yuxia,34.0615,108.6291,14.45,69,100,2.55,CN,1729981872
133,conception bay south,47.4999,-52.9981,9.3,91,83,4.63,CA,1729981989
134,huarmey,-10.0681,-78.1522,19.08,81,7,3.93,PE,1729982159
135,cidreira,-30.1811,-50.2056,16.1,64,0,6.17,BR,1729982160
136,vadso,70.0744,29.7487,3.09,81,49,6.17,NO,1729982161
137,porbandar,21.6422,69.6093,27.11,77,33,3.66,IN,1729982162
138,ribeira grande,38.5167,-28.7,19.87,75,38,4.02,PT,1729982163
139,luwuk,-0.9516,122.7875,26.16,61,50,1.27,ID,1729982165
140,porto de moz,-1.7483,-52.2383,31.72,44,73,3.95,BR,1729982166
141,bubaque,11.2833,-15.8333,28.12,77,84,4.5,GW,1729982167
142,fale old settlement,-9.3852,-171.2468,28.35,75,94,4.79,TK,1729982414
143,hondo,32.45,130.2,22.57,83,41,2.08,JP,1729982416
144,lebu,-37.6167,-73.65,11.67,83,5,9.26,CL,1729982417
145,acarau,-2.8856,-40.12,25.42,78,9,7.89,BR,1729982418
146,mount isa,-20.7333,139.5,27.87,13,20,2.06,AU,1729982419
147,utrik,11.2278,169.8474,28.67,78,89,6.57,MH,1729982420
148,susuman,62.7833,148.1667,-17.92,96,100,0.97,RU,1729982421
149,belyy yar,53.6039,91.3903,4.94,100,40,1.0,RU,1729982423
150,watertown,42.3709,-71.1828,14.44,35,0,5.66,US,1729982424
151,lata,40.1629,-8.3327,9.8,98,92,0.76,PT,1729982425
152,san antonio de pale,-1.4014,5.6325,25.1,85,100,5.04,GQ,1729982426
153,najran,17.4924,44.1277,20.72,46,87,4.36,SA,1729982427
154,sidhauli,27.2833,80.8333,23.12,69,0,1.76,IN,1729982429
155,abepura,-2.6333,140.5833,23.45,100,75,2.06,ID,1729982430
156,crane,31.3974,-102.3501,26.91,37,0,2.5,US,1729982431
157,fada,7.25,4.0667,22.22,96,89,0.29,NG,1729982432
158,parham,17.0968,-61.7705,27.83,77,40,2.57,AG,1729982433
159,nemuro,43.3236,145.575,9.7,65,100,4.58,JP,1729982434
160,coquimbo,-29.9533,-71.3436,14.85,74,20,5.14,CL,1729982435
161,tateyama,34.9833,139.8667,21.13,80,80,3.4,JP,1729982437
162,bengkulu,-3.8004,102.2655,23.9,86,24,1.45,ID,1729982438
163,hobyo,5.3505,48.5268,25.77,87,99,2.96,SO,1729982439
164,barra de santo antonio,-9.4047,-35.5072,24.88,83,30,5.44,BR,1729982440
165,egilsstadir,65.2653,-14.3948,2.95,70,75,3.09,IS,1729982441
166,papao,-17.75,-149.55,27.82,69,65,8.71,PF,1729982443
167,lyndon,38.2567,-85.6016,17.9,44,0,4.12,US,1729982444
168,nova sintra,14.8667,-24.7167,27.58,74,72,7.24,CV,1729982445
169,tarata,-17.6167,-66.0167,16.68,61,99,5.02,BO,1729982446
170,hermanus,-34.4187,19.2345,16.0,82,98,9.5,ZA,1729982447
171,malanje,-9.5402,16.341,18.77,97,53,2.69,AO,1729982448
172,avarua,-21.2078,-159.775,24.03,69,20,6.69,CK,1729982449
173,pangody,65.85,74.4859,-13.33,98,72,2.25,RU,1729982450
174,zheleznodorozhnyy,55.7503,38.0042,7.75,83,96,2.73,RU,1729982451
175,novaya ladoga,60.1025,32.3019,8.01,81,91,1.61,RU,1729982453
176,pisco,-13.7,-76.2167,21.03,64,40,3.6,PE,1729982454
177,galesong,-5.3166,119.3661,27.14,69,9,2.74,ID,1729982455
178,geraldton,-28.7667,114.6,12.23,87,0,4.63,AU,1729982159
179,colonia,50.9333,6.95,12.71,88,0,3.09,DE,1729982457
180,guiuan,11.0333,125.7247,27.56,79,100,12.62,PH,1729982458
181,cheremukhovo,60.3484,59.9851,2.0,85,99,0.71,RU,1729982460
182,sterling,39.0062,-77.4286,15.57,57,0,0.89,US,1729982461
183,brisas de zicatela,15.8369,-97.0419,31.29,79,20,2.06,MX,1729982463
184,vershino-darasunskiy,52.35,115.5167,-8.73,96,33,1.93,RU,1729982464
185,luanda,-8.8368,13.2343,26.0,78,75,3.09,AO,1729982465
186,kununurra,-15.7667,128.7333,28.99,65,39,2.06,AU,1729982466
187,east london,-33.0153,27.9116,18.08,81,70,10.1,ZA,1729982467
188,kingston,17.997,-76.7936,28.53,79,40,6.69,JM,1729982428
189,punta arenas,-53.15,-70.9167,10.06,66,75,7.72,CL,1729982332
190,rayong,12.8333,101.4333,28.22,95,97,0.99,TH,1729982470
191,proddatur,14.7333,78.55,24.54,71,59,0.64,IN,1729982471
192,kristiansund,63.1115,7.732,12.29,87,100,2.06,NO,1729982473
193,shantobe,52.4581,68.1839,2.29,78,35,2.62,KZ,1729982474
194,verkhnevilyuysk,63.4453,120.3167,-17.44,98,99,1.15,RU,1729982475
195,hazard,37.2495,-83.1932,12.46,70,99,1.94,US,1729982292
196,pauini,-7.7136,-66.9764,28.76,60,70,0.59,BR,1729982477
197,tibati,6.4667,12.6333,20.12,82,49,0.8,CM,1729982478
198,suncho corral,-27.9336,-63.4294,22.04,34,0,4.15,AR,1729982369
199,ancud,-41.8697,-73.8203,10.82,80,32,1.35,CL,1729982480
200,luderitz,-26.6481,15.1594,14.76,77,68,3.41,NA,1729982482
201,udachny,66.4167,112.4,-10.36,96,100,0.94,RU,1729982483
202,howrah,22.5892,88.3103,26.0,100,40,1.54,IN,1729982484
203,port saint john's,-31.6229,29.5448,18.08,85,30,6.02,ZA,1729982485
204,dalandzadgad,43.5708,104.425,5.47,43,6,2.18,MN,1729982486
205,fort stockton,30.894,-102.8793,28.2,37,0,2.06,US,1729982487
206,piacabucu,-10.4056,-36.4344,25.61,73,6,6.87,BR,1729982488
207,kulhudhuffushi,6.6221,73.07,27.91,79,100,7.69,MV,1729982491
208,anapa,44.8908,37.3239,3.19,93,0,4.0,RU,1729982492
209,aasiaat,68.7098,-52.8699,-10.62,98,68,4.08,GL,1729982493
210,hats'avan,39.4641,45.9705,2.15,85,25,0.55,AM,1729982494
211,whitehorse,60.7161,-135.0538,-1.61,92,100,3.6,CA,1729982495
212,sisimiut,66.9395,-53.6735,-4.45,67,100,7.5,GL,1729982496
213,camalu,30.85,-116.0667,22.15,61,95,3.77,MX,1729982497
214,hadibu,12.65,54.0333,26.82,81,70,2.05,YE,1729982500
215,arinos,-15.9169,-46.1056,23.99,88,87,0.49,BR,1729982501
216,saint-denis,48.9167,2.3333,15.04,97,20,3.09,FR,1729982502
217,mount gambier,-37.8333,140.7667,18.17,51,16,2.12,AU,1729982503
218,jiwani,25.05,61.7417,27.51,77,64,4.21,PK,1729982504
219,collie,-33.3667,116.15,10.79,76,5,2.46,AU,1729982505
220,back mountain,41.3359,-75.9963,10.16,51,16,2.75,US,1729982506
221,vetluzhskiy,58.3902,45.4654,5.12,92,98,3.19,RU,1729982508
222,maintirano,-18.0667,44.0167,25.75,79,71,3.72,MG,1729982509
223,newnham,-41.3833,147.1333,13.53,76,100,5.14,AU,1729982510
224,dois vizinhos,-25.7336,-53.0572,18.58,56,46,3.09,BR,1729982461
225,lamarque,-39.423,-65.7021,21.76,24,0,3.27,AR,1729982512
226,manokwari,-0.8667,134.0833,27.74,76,57,3.06,ID,1729982513
227,isafjordur,66.0755,-23.124,-3.13,86,99,4.2,IS,1729982514
228,stara lubovna,49.2986,20.6862,7.89,75,89,2.39,SK,1729982515
229,urumqi,43.801,87.6005,5.53,81,0,1.0,CN,1729982516
230,yanykurgan,43.915,67.2481,9.72,80,81,3.73,KZ,1729982518
231,batroun,34.2553,35.6581,21.41,26,0,0.85,LB,1729982519
232,mahibadhoo,3.7833,72.9667,28.34,73,100,6.93,MV,1729982521
233,laguna,38.421,-121.4238,26.93,28,0,2.57,US,1729982251
234,kangding,30.0513,101.9603,6.39,86,39,1.96,CN,1729982523
235,mitu,1.1983,-70.1733,23.74,95,100,0.86,CO,1729982524
236,keflavik,64.0049,-22.5624,3.24,87,75,5.66,IS,1729982525
237,ustaritz,43.3965,-1.456,11.34,100,100,1.54,FR,1729982527
238,azul,-36.777,-59.8585,15.23,39,2,4.33,AR,1729982507
239,puerto baquerizo moreno,-0.9,-89.6,22.55,78,75,6.17,EC,1729982529
240,santa maria,-29.6842,-53.8069,16.61,67,0,1.03,BR,1729982530
241,sechura,-5.5569,-80.8222,21.96,64,37,7.51,PE,1729982532
242,talnakh,69.4865,88.3972,-21.1,90,47,2.94,RU,1729982533
243,mar del plata,-38.0023,-57.5575,13.3,79,0,3.13,AR,1729982309
244,anadyr,64.75,177.4833,-1.72,92,40,11.0,RU,1729982535
245,st. john's,47.5649,-52.7093,9.43,89,75,7.2,CA,1729982537
246,lalganj,25.8667,85.1833,22.8,93,98,2.97,IN,1729982538
247,shendi,16.6915,33.4341,27.81,12,16,4.02,SD,1729982539
248,carolina beach,34.0352,-77.8936,23.91,81,0,1.34,US,1729982540
249,mugia,43.1041,-9.2179,13.84,79,92,8.96,ES,1729982541
250,haiku-pauwela,20.9219,-156.3051,26.25,83,75,13.41,US,1729982542
251,viedma,-40.8135,-62.9967,16.06,32,0,1.49,AR,1729982308
252,balikpapan,-1.2675,116.8289,24.55,83,40,0.51,ID,1729982546
253,saint-joseph,-21.3667,55.6167,22.21,84,9,2.26,RE,1729982547
254,loreto,22.2667,-101.9667,19.35,34,0,8.55,MX,1729982548
255,oyama,36.3,139.8,20.31,62,92,0.6,JP,1729982549
256,menongue,-14.6585,17.691,23.3,41,88,2.51,AO,1729982550
257,namie,37.4833,141.0,18.55,77,71,3.24,JP,1729982551
258,sitka,57.0531,-135.33,7.94,76,100,5.14,US,1729982398
259,thunder bay,48.4001,-89.3168,9.99,32,75,4.63,CA,1729982555
260,massawa,15.6097,39.45,31.83,64,100,1.7,ER,1729982556
261,rondonopolis,-16.4708,-54.6356,23.23,92,100,3.2,BR,1729982557
262,palikir - national government center,6.9248,158.1611,31.41,66,40,2.06,FM,1729982558
263,macas,-2.3167,-78.1167,24.86,73,40,4.63,EC,1729982407
264,dudinka,69.4058,86.1778,-26.69,100,63,2.25,RU,1729982560
265,siuri,23.9167,87.5333,22.8,96,43,2.11,IN,1729982414
266,orland,39.7474,-122.1964,27.08,23,7,3.76,US,1729982563
267,kiunga,-6.1219,141.2906,28.54,65,50,0.89,PG,1729982564
268,saltillo,25.4167,-101.0,21.49,60,29,4.92,MX,1729982326
269,tidjikja,18.5564,-11.4271,27.37,20,55,4.23,MR,1729982566
270,santa vitoria do palmar,-33.5189,-53.3681,13.09,71,3,0.11,BR,1729982567
271,vernon,50.2581,-119.2691,13.2,68,100,0.89,CA,1729982568
272,daru,-9.0763,143.2092,27.94,79,87,4.65,PG,1729982569
273,trinity beach,-16.7888,145.6968,27.94,69,20,5.14,AU,1729982570
274,plettenberg bay,-34.0527,23.3716,16.03,76,90,2.92,ZA,1729982572
275,quiberon,47.4841,-3.1196,12.33,81,71,4.74,FR,1729982573
276,shenjiamen,29.9576,122.298,22.65,90,43,1.48,CN,1729982574
277,mulanje,-16.0316,35.5,24.56,57,2,2.07,MW,1729982575
278,tralee,52.2704,-9.7026,7.13,79,51,1.4,IE,1729982576
279,cabo san lucas,22.8909,-109.9124,30.98,60,0,5.14,MX,1729982577
280,solleftea,63.1667,17.2667,5.92,94,45,2.6,SE,1729982578
281,buala,-8.145,159.5921,27.6,80,97,2.65,SB,1729982579
282,portland,45.5234,-122.6762,17.42,91,100,3.09,US,1729982581
283,holualoa,19.6228,-155.9522,28.91,73,75,4.12,US,1729982582
284,san matias,-16.3667,-58.4,23.36,97,100,1.47,BO,1729982583
285,junction city,39.0286,-96.8314,17.92,26,0,2.24,US,1729982584
286,wanning,18.8003,110.3967,24.87,90,99,7.59,CN,1729982585
287,dame-marie,18.5667,-74.4167,27.34,87,99,7.43,HT,1729982586
288,prattville,32.464,-86.4597,29.73,36,0,2.57,US,1729982587
289,road town,18.4167,-64.6167,29.02,74,20,2.57,VG,1729982588
290,yuzhno-kurilsk,44.0306,145.8556,8.62,65,93,3.19,RU,1729982590
291,otuzco,-7.9,-78.5833,13.76,65,70,2.02,PE,1729982591
292,castillos,-34.1667,-53.8333,11.97,75,0,1.25,UY,1729982592
293,dunedin,-45.8742,170.5036,9.33,99,100,1.34,NZ,1729982593
294,shangmei,27.7428,111.2956,17.35,65,100,1.12,CN,1729982594
295,chibougamau,49.9168,-74.3659,-2.21,93,100,6.17,CA,1729982357
296,carnarvon,-24.8667,113.6333,21.51,55,0,10.52,AU,1729982596
297,vera cruz,-12.6333,-41.0333,26.09,41,32,2.56,BR,1729982597
298,balpyk bi,44.8947,78.2083,8.25,84,79,1.51,KZ,1729982598
299,iskateley,67.6803,53.1512,0.94,95,69,3.8,RU,1729982600
300,el tigre,8.8875,-64.2454,27.76,63,100,4.72,VE,1729982601
301,broome,42.2506,-75.833,8.58,75,75,2.68,US,1729982602
302,puerto colombia,10.9878,-74.9547,31.05,77,39,7.45,CO,1729982603
303,lompoc,34.6391,-120.4579,22.85,60,0,4.63,US,1729982604
304,salahonda,2.1019,-78.7217,26.18,83,84,5.77,CO,1729982605
305,awjilah,29.1081,21.2869,19.31,45,0,2.87,LY,1729982606
306,barah,13.7,30.3667,25.34,11,17,4.32,SD,1729982607
307,margherita,27.2833,95.6833,20.01,94,29,0.88,IN,1729982608
308,kone,-21.0595,164.8658,29.93,49,98,3.3,NC,1729982610
309,kathu,7.9178,98.3332,28.16,93,100,6.46,TH,1729982611
310,midvagur,62.0511,-7.1939,6.46,81,100,6.17,FO,1729982612
311,arno,60.1167,18.6333,7.34,94,13,3.24,SE,1729982613
312,atamyrat,37.8357,65.2106,14.62,60,100,2.54,TM,1729982614
313,glace bay,46.1969,-59.957,9.53,83,75,4.12,CA,1729982615
314,heihe,50.2441,127.4902,-2.68,61,100,1.86,CN,1729982616
315,iquitos,-3.7481,-73.2472,25.02,100,75,2.57,PE,1729982617
316,malango,-2.9627,119.9001,21.05,81,58,0.3,ID,1729982619
317,kayangel,8.0823,134.7173,28.61,76,49,10.84,PW,1729982620
318,timbuktu,16.7735,-3.0074,31.1,18,29,4.68,ML,1729982621
319,baise city,23.8997,106.6133,19.07,66,100,1.9,CN,1729982622
320,indre arna,60.4247,5.4764,11.12,88,100,4.64,NO,1729982623
321,bilibino,68.0546,166.4372,-11.85,94,99,1.21,RU,1729982624
322,perros-guirec,48.8145,-3.4396,8.69,92,19,0.28,FR,1729982626
323,pangai,-19.8,-174.35,23.97,78,92,7.01,TO,1729982627
324,huesca,42.1362,-0.4087,8.38,94,100,1.03,ES,1729982628
325,meadow lake,34.8014,-106.5436,25.44,26,29,3.23,US,1729982629
326,dwarka,22.2394,68.9678,27.99,75,52,4.46,IN,1729982355
327,sodankyla,67.4167,26.6,0.94,91,85,3.75,FI,1729982631
328,inarajan village,13.2736,144.7484,26.33,93,91,4.23,GU,1729982632
329,hutang,31.5333,119.4833,17.76,95,100,4.96,CN,1729982633
330,constitucion,-35.3333,-72.4167,14.08,75,0,3.61,CL,1729982634
331,boca suno,-0.7167,-77.1333,27.23,71,74,1.01,EC,1729982636
332,weno,7.4515,151.8468,28.97,84,100,4.63,FM,1729982637
333,galle,6.0367,80.217,28.29,84,64,4.07,LK,1729982638
334,grand falls-windsor,48.9332,-55.6649,7.5,90,96,0.45,CA,1729982639
335,rabo de peixe,37.8,-25.5833,17.77,99,75,1.54,PT,1729982532
336,kokopo,-4.352,152.2633,28.71,68,99,1.22,PG,1729982642
337,arraial do cabo,-22.9661,-42.0278,23.71,92,92,9.51,BR,1729982644
338,bir el ater,34.7449,8.0602,14.93,84,0,5.87,DZ,1729982645
339,la ronge,55.1001,-105.2842,7.14,42,40,6.69,CA,1729982646
340,aitape,-3.1374,142.3475,28.16,75,27,2.68,PG,1729982647
341,uturoa,-16.7333,-151.4333,25.31,63,80,7.61,PF,1729982648
342,sarmiento,-45.5882,-69.07,17.43,25,41,11.37,AR,1729982545
343,balabac,7.9868,117.0645,27.76,78,90,5.09,PH,1729982650
344,karungdong,5.8844,121.263,27.12,80,100,1.04,PH,1729982651
345,coyhaique,-45.5752,-72.0662,9.01,78,55,3.62,CL,1729982652
346,sysert',56.4953,60.8192,-0.01,88,93,1.25,RU,1729982654
347,hanceville,34.0607,-86.7675,25.95,52,1,2.91,US,1729982655
348,lavra,41.2594,-8.7185,10.24,100,0,1.03,PT,1729982656
349,nuku'alofa,-21.1333,-175.2,26.19,83,40,5.66,TO,1729982657
350,nadym,65.5333,72.5167,-8.6,97,66,2.69,RU,1729982658
351,wenzhou,27.9994,120.6668,21.76,94,60,1.51,CN,1729982659
352,namibe,-15.1961,12.1522,20.83,84,97,1.04,AO,1729982661
353,vilyuchinsk,52.9306,158.4028,1.15,72,62,7.3,RU,1729982663
354,bodo,67.28,14.405,10.02,59,100,12.35,NO,1729982664
355,labrador city,52.9463,-66.9114,0.95,91,100,30.85,CA,1729982665
356,urengoy,65.9667,78.3667,-18.13,100,84,1.64,RU,1729982666
357,cambria,35.5641,-121.0808,18.92,70,100,2.24,US,1729982667
358,khovd,48.0056,91.6419,4.12,54,100,0.6,MN,1729982668
359,tarfaya,27.9358,-12.9218,20.24,71,23,10.78,MA,1729982669
360,vorkuta,67.5,64.0,-3.08,94,100,6.17,RU,1729982671
361,kimbe,-5.5502,150.1429,30.36,62,93,0.59,PG,1729982672
362,konosha,60.9736,40.257,2.35,96,37,1.93,RU,1729982673
363,salalah,17.0151,54.0924,28.05,78,40,1.03,OM,1729982674
364,kluang,2.0251,103.3328,24.08,88,100,1.28,MY,1729982675
365,dolinsk,47.35,142.8,4.52,62,100,2.04,RU,1729982676
366,bozoum,6.3193,16.3799,21.22,88,97,1.22,CF,1729982677
367,penhalonga,-18.8911,32.6978,16.33,94,16,1.6,ZW,1729982678
368,akdepe,42.0551,59.3788,12.06,60,87,4.31,TM,1729982679
369,fuding,27.3273,120.214,22.31,96,94,1.03,CN,1729982681
370,katutura,-22.521,17.0557,20.33,13,50,0.45,NA,1729982682
371,fujin,47.26,132.0322,1.23,81,100,1.83,CN,1729982683
372,saipan,15.1355,145.701,29.39,84,20,4.12,MP,1729982684
373,manaure,11.7751,-72.4445,30.32,66,85,10.07,CO,1729982685
374,flin flon,54.7682,-101.865,5.91,61,75,0.0,CA,1729982545
375,saint-pierre,-21.3393,55.4781,22.82,64,0,2.06,RE,1729982687
376,ebon,4.582,168.6964,28.11,68,90,2.66,MH,1729982688
377,mkokotoni,-5.8767,39.2547,25.18,92,100,2.99,TZ,1729982690
378,boundiali,9.5217,-6.4869,24.7,80,100,1.13,CI,1729982691
379,petropavlovka,50.6114,105.3196,-0.25,75,24,1.21,RU,1729982692
380,mahina,-17.5065,-149.489,27.87,57,20,2.57,PF,1729982693
381,moneteau,47.8492,3.5818,14.6,87,79,1.52,FR,1729982694
382,ribadesella,43.4614,-5.0596,11.89,70,95,2.43,ES,1729982695
383,dondo,-19.6094,34.7431,25.73,97,21,1.14,MZ,1729982696
384,palmer,42.1584,-72.3287,12.51,37,8,3.27,US,1729982697
385,ituango,7.1712,-75.764,20.64,98,100,0.95,CO,1729982699
386,launceston,-41.45,147.1667,14.8,72,100,5.66,AU,1729982700
387,erbil,36.1926,44.0106,9.9,27,0,0.0,IQ,1729982701
388,gadsden,34.0143,-86.0066,28.01,39,0,4.12,US,1729982702
389,quibala,-10.7337,14.98,18.45,97,100,0.75,AO,1729982703
390,mount pearl,47.5166,-52.7813,8.97,90,75,7.2,CA,1729982442
391,maragogi,-9.0122,-35.2225,24.63,80,10,3.57,BR,1729982705
392,prince rupert,54.3161,-130.3201,8.83,86,100,12.35,CA,1729982585
393,port shepstone,-30.7414,30.455,18.42,81,69,7.16,ZA,1729982708
394,waddan,29.1614,16.139,19.29,39,0,5.02,LY,1729982709
395,mariental,-24.6333,17.9667,18.57,21,39,5.45,NA,1729982710
396,wrzesnia,52.3251,17.5652,10.38,88,13,2.26,PL,1729982711
397,calama,-22.4667,-68.9333,24.27,5,0,9.77,CL,1729982647
398,hastings,50.8552,0.5729,13.21,56,100,4.23,GB,1729982713
399,gorontalo,0.5412,123.0595,25.98,81,10,0.23,ID,1729982714
400,presov,49.1667,21.25,9.79,73,79,1.55,SK,1729982715
401,nago,26.5881,127.9761,25.97,86,97,3.37,JP,1729982718
402,xilin hot,43.9667,116.0333,-0.07,62,2,2.53,CN,1729982719
403,nar'yan-mar,67.6713,53.087,0.97,95,66,3.87,RU,1729982720
404,hithadhoo,-0.6,73.0833,27.44,74,11,2.59,MV,1729982721
405,inirida,3.8653,-67.9239,26.95,80,100,1.85,CO,1729982722
406,garachico,28.7781,-17.7646,19.06,68,75,8.23,ES,1729982723
407,tshikapa,-6.4167,20.8,20.47,92,100,1.01,CD,1729982725
408,ubari,26.5921,12.7805,20.68,28,2,5.71,LY,1729982726
409,mapimi,25.8167,-103.85,25.16,28,0,4.13,MX,1729982727
410,urrao,6.3152,-76.1342,16.44,97,100,1.83,CO,1729982728
411,vavatenina,-17.4667,49.2,21.58,94,59,0.45,MG,1729982729
412,alice springs,-23.7,133.8833,22.75,12,46,3.09,AU,1729982730
413,constantia,44.1833,28.65,7.61,62,0,2.2,RO,1729982712
414,crockett,31.3182,-95.4566,32.01,45,0,0.0,US,1729982733
415,mul,20.0667,79.6667,19.74,79,37,2.09,IN,1729982734
416,saint-francois,46.4154,3.9054,15.36,83,0,2.06,FR,1729982735
417,dalnerechensk,45.9339,133.7225,0.89,99,100,2.05,RU,1729982736
418,rouissat,31.9243,5.3502,20.04,56,13,0.0,DZ,1729982737
419,mossel bay,-34.1831,22.146,12.96,86,89,7.09,ZA,1729982738
420,shubarkuduk,49.1447,56.4872,4.21,84,86,3.4,KZ,1729982739
421,tamale,9.4008,-0.8393,26.53,70,40,2.28,GH,1729982740
422,yemva,62.59,50.8594,2.04,99,100,1.3,RU,1729982741
423,urucara,-2.5364,-57.76,36.73,26,64,3.05,BR,1729982743
424,brigantine,39.4101,-74.3646,16.11,53,0,4.12,US,1729982744
425,belmonte,-15.8631,-38.8828,25.42,76,36,5.83,BR,1729982745
426,dawesville,30.9224,-84.0091,27.23,44,0,1.54,US,1729982746
427,mejit,10.2753,170.8646,28.41,77,100,4.83,MH,1729982747
428,nabire,-3.3667,135.4833,26.55,84,98,1.03,ID,1729982748
429,khandyga,62.6667,135.6,-17.02,98,91,0.79,RU,1729982749
430,sakaraha,-22.9,44.5333,20.83,71,4,1.01,MG,1729982750
431,tavda,58.0425,65.2726,3.15,90,100,1.09,RU,1729982752
432,acapulco de juarez,16.8634,-99.8901,30.9,74,0,3.6,MX,1729982753
433,bermejo,-32.8833,-68.8,25.95,24,0,1.54,AR,1729982754
434,bellavista,-7.0561,-76.5911,27.17,66,90,0.97,PE,1729982755
435,yreka,41.7354,-122.6345,24.1,40,0,8.23,US,1729982756
436,saldanha,-33.0117,17.9442,13.85,75,90,4.99,ZA,1729982757
437,banda aceh,5.5577,95.3222,26.59,83,81,6.01,ID,1729982670
438,ta`u,-14.2336,-169.5144,27.02,83,28,7.73,AS,1729982759
439,paragould,36.0584,-90.4973,20.9,58,12,3.52,US,1729982566
440,cooper's town,26.8667,-77.5167,24.19,69,73,6.18,BS,1729982762
441,l'union,43.6604,1.4826,11.84,94,75,2.06,FR,1729982763
442,newman,37.3138,-121.0208,25.59,32,100,1.34,US,1729982764
443,san luis de la loma,17.2706,-100.8939,28.71,79,0,2.33,MX,1729982765
444,las tablas,7.7667,-80.2833,27.32,99,100,2.61,PA,1729982630
445,puerto yuca,2.9383,-73.2083,24.71,93,100,0.75,CO,1729982767
446,apatity,67.5641,33.4031,0.73,84,75,1.51,RU,1729982768
447,polyarnyy,69.1989,33.4478,1.94,81,49,5.2,RU,1729982769
448,ingeniero jacobacci,-41.3427,-69.5448,21.27,10,54,4.76,AR,1729982770
449,selkirk,50.1436,-96.8845,8.99,43,99,0.89,CA,1729982633
450,pariaman,-0.619,100.12,22.03,81,86,1.82,ID,1729982773
451,waingapu,-9.6567,120.2641,27.4,71,0,1.75,ID,1729982775
452,el galpon,-25.3807,-64.6526,24.35,35,59,1.67,AR,1729982776
453,flying fish cove,-10.4217,105.6791,24.82,88,100,3.6,CX,1729982777
454,silver springs,29.1044,-82.0206,27.19,67,74,3.56,US,1729982778
455,vila franca do campo,37.7167,-25.4333,18.27,99,94,1.92,PT,1729982779
456,bure,10.7,37.0667,13.41,93,25,1.38,ET,1729982781
457,cherryville,53.1569,-6.9667,5.92,89,24,2.28,IE,1729982782
458,bontang,0.1333,117.5,26.44,82,100,3.43,ID,1729982783
459,kudat,6.8837,116.8477,24.05,94,100,0.0,MY,1729982784
460,kapa'a,22.0752,-159.319,25.66,88,75,6.69,US,1729982787
461,vila velha,-20.3297,-40.2925,25.97,89,0,4.12,BR,1729982788
462,sittwe,20.15,92.9,24.82,85,26,3.06,MM,1729982789
463,codrington,-38.2667,141.9667,17.31,55,42,2.73,AU,1729982790
464,ovalle,-30.5983,-71.2003,21.87,43,1,2.67,CL,1729982791
465,sorsk,54.0033,90.2467,4.7,92,100,0.74,RU,1729982792
466,bairnsdale,-37.8333,147.6167,20.03,53,94,0.45,AU,1729982793
467,tucurui,-3.7661,-49.6725,29.4,54,83,0.42,BR,1729982795
468,acatlan de osorio,18.2,-98.05,25.11,46,5,7.85,MX,1729982796
469,salanso,12.1833,-4.0833,28.05,50,94,2.52,BF,1729982797
470,an nuhud,12.7,28.4333,24.77,11,21,5.31,SD,1729982798
471,tete,-16.1564,33.5867,33.05,46,20,2.68,MZ,1729982799
472,okhotsk,59.3833,143.3,-10.34,70,7,8.21,RU,1729982800
473,quellon,-43.1167,-73.6167,10.13,74,62,4.71,CL,1729982801
474,ingeniero guillermo n. juarez,-23.9,-61.85,24.84,21,90,2.97,AR,1729982802
475,petropavlovsk-kamchatsky,53.0452,158.6483,0.33,93,75,4.0,RU,1729982803
476,lerwick,60.1545,-1.1494,8.89,69,100,8.74,GB,1729982542
477,jerome,42.7241,-114.5186,22.71,19,0,0.0,US,1729982806
478,dongola,19.1667,30.4833,21.08,16,2,5.09,SD,1729982807
479,gouvieux,49.1871,2.4144,14.49,89,93,1.62,FR,1729982808
480,opuwo,-18.0607,13.84,18.51,35,3,3.23,NA,1729982809
481,puerto cabezas,14.0351,-83.3888,30.98,79,75,5.14,NI,1729982702
482,hami,42.8,93.45,11.06,32,100,1.03,CN,1729982811
483,buka,40.8108,69.1986,9.21,88,92,1.96,UZ,1729982812
484,oblivskaya,48.5362,42.5014,3.25,70,8,2.91,RU,1729982814
485,barabai,-2.5833,115.3833,24.59,82,100,0.59,ID,1729982815
486,dalhart,36.0595,-102.5133,22.01,35,0,6.69,US,1729982816
487,oriximina,-1.7656,-55.8661,31.41,41,52,1.69,BR,1729982817
488,lae,-6.7221,146.9847,26.03,74,88,1.45,PG,1729982818
489,itamaraca,-7.7478,-34.8256,25.07,78,16,3.43,BR,1729982819
490,gizo,-8.103,156.8419,28.99,74,49,4.8,SB,1729982820
491,ramadi,33.4226,43.3058,17.98,20,0,2.27,IQ,1729982821
492,guerrero negro,27.9769,-114.0611,24.23,47,77,5.7,MX,1729982823
493,tura,25.5198,90.2201,21.58,79,99,1.41,IN,1729982824
494,sabha,27.0377,14.4283,20.22,29,0,5.17,LY,1729982825
495,azangaro,-14.9167,-70.2167,7.33,79,80,4.08,PE,1729982826
496,zhelezinka,53.54,75.3072,5.72,87,98,9.53,KZ,1729982827
497,betioky,-23.7167,44.3833,21.79,71,0,1.66,MG,1729982828
498,perry,37.2506,-83.1999,12.46,70,99,1.94,US,1729982829
499,vakarai,55.6035,23.8213,9.47,92,53,1.91,LT,1729982830
500,katsuura,35.1333,140.3,21.52,81,93,5.81,JP,1729982831
501,lazaro cardenas,17.9583,-102.2,28.71,78,0,4.06,MX,1729982833
502,tamandare,-8.7597,-35.1047,24.83,80,10,3.45,BR,1729982834
503,orahovac,42.3994,20.6547,12.39,72,12,1.1,XK,1729982836
504,parabel',58.6978,81.4825,1.46,95,91,0.86,RU,1729982837
505,byron bay,-28.65,153.6167,20.58,76,100,0.55,AU,1729982838
506,ash shafa,21.0694,40.3119,16.1,68,16,0.26,SA,1729982839
507,east wenatchee bench,47.4257,-120.2812,13.51,54,40,2.06,US,1729982840
508,pasni,25.2631,63.471,27.85,61,31,4.69,PK,1729982842
509,nsanje,-16.92,35.262,26.14,65,0,2.46,MW,1729982843
510,traiguen,-38.25,-72.6833,11.87,72,9,3.52,CL,1729982844
511,san patricio,28.017,-97.5169,30.97,56,83,5.51,US,1729982845
512,gladstone,-23.85,151.25,23.96,64,40,5.14,AU,1729982846
513,crescent city,41.756,-124.2018,18.6,88,100,5.66,US,1729982655
514,vredendal,-31.6683,18.5012,14.27,73,75,6.8,ZA,1729982848
515,timimoun,29.2639,0.231,24.91,31,5,3.51,DZ,1729982849
516,panj,37.2363,69.0991,14.76,69,100,0.51,TJ,1729982851
517,pergamino,-33.89,-60.5736,16.4,60,0,1.66,AR,1729982765
518,cascais,38.6979,-9.4215,15.28,82,31,8.53,PT,1729982853
519,laminusa,5.5549,120.9136,28.29,72,97,0.8,PH,1729982854
520,zorritos,-3.6805,-80.6782,23.13,72,36,4.76,PE,1729982855
521,alekseyevka,50.6309,38.6903,4.2,67,69,2.62,RU,1729982856
522,cockburn town,21.4612,-71.1419,28.29,74,100,10.34,TC,1729982857
523,krokek,58.6667,16.4,10.14,93,75,1.03,SE,1729982858
524,praia da vitoria,38.7333,-27.0667,18.14,72,75,1.95,PT,1729982859
525,vallenar,-28.5708,-70.7581,21.74,42,0,2.04,CL,1729982861
526,palanpur,24.1667,72.4333,24.8,40,6,2.15,IN,1729982862
527,argo,37.6333,22.7333,14.49,57,60,2.38,GR,1729982863
528,moab,38.5733,-109.5498,23.6,30,9,0.95,US,1729982864
529,nalagarh,31.05,76.7167,19.31,44,0,2.0,IN,1729982865
530,glucholazy,50.315,17.3836,12.08,78,27,2.12,PL,1729982866
531,nampa,43.5407,-116.5635,21.66,40,0,2.06,US,1729982868
532,saint-louis,16.3333,-15.0,32.46,17,100,4.34,SN,1729982869
533,belokurikha,51.9959,84.9896,9.23,88,100,1.76,RU,1729982950
534,mankoeng,-23.9,29.8167,15.89,92,77,3.97,ZA,1729982952
535,nyurba,63.2842,118.3319,-13.34,96,100,1.5,RU,1729982953
536,sao joao da barra,-21.6403,-41.0511,26.05,91,67,1.75,BR,1729982954
537,nepalgunj,28.05,81.6167,22.2,81,0,1.42,NP,1729982955
538,tyukalinsk,55.8732,72.1967,4.5,87,100,1.6,RU,1729982956
539,isfara,40.1265,70.6253,8.94,84,100,0.94,TJ,1729982957
540,hauterive,46.0901,3.4459,13.79,96,100,1.77,FR,1729982958
541,the pas,53.8251,-101.2541,7.01,53,75,2.06,CA,1729982960
542,juiz de fora,-21.7642,-43.3503,20.55,96,91,1.12,BR,1729982943
543,peniche,39.3558,-9.3811,15.87,93,68,9.76,PT,1729982963
544,coahuayana de hidalgo,18.7,-103.6583,29.52,73,0,1.9,MX,1729982964
545,ad dabbah,18.05,30.95,22.15,12,14,4.51,SD,1729982966
546,linxia chengguanzhen,35.6003,103.2064,1.22,87,26,0.24,CN,1729982967
547,chulakkurgan,43.765,69.1814,6.86,80,47,0.8,KZ,1729982969
548,churapcha,62.0025,132.4325,-17.13,95,100,0.84,RU,1729982970
549,amga,60.8953,131.9608,-22.81,100,100,0.56,RU,1729982971
550,ulladulla,-35.35,150.4667,21.08,30,98,0.75,AU,1729982972
551,muynoq,43.7683,59.0214,10.54,77,100,4.54,UZ,1729982973
552,birzebbuga,35.8258,14.5269,22.38,68,40,8.23,MT,1729982975
553,hadithah,34.1397,42.3781,16.8,22,0,2.18,IQ,1729982976
554,tamiahua,21.2667,-97.45,26.22,73,7,3.18,MX,1729982977
555,tindouf,27.6711,-8.1474,15.51,68,1,7.59,DZ,1729982978
556,ixtapa,20.7,-105.2,31.57,70,0,4.12,MX,1729982979
557,malvan,16.0667,73.4667,25.01,75,44,2.69,IN,1729982981
558,skowhegan,44.7651,-69.7192,9.28,53,11,4.27,US,1729982982
559,lavrio,37.7145,24.0565,16.53,62,64,7.39,GR,1729982983
560,kerikeri,-35.2268,173.9474,20.48,39,13,3.89,NZ,1729982984
561,san-pedro,4.7485,-6.6363,25.12,92,45,3.11,CI,1729982985
562,altamira,-3.2033,-52.2064,29.05,70,20,2.06,BR,1729982986
563,letlhakeng,-24.0944,25.0298,26.01,8,96,2.31,BW,1729982987
564,boguchany,58.3814,97.4531,2.19,99,100,2.39,RU,1729982988
565,st ives,50.2086,-5.4875,12.0,91,1,3.0,GB,1729982989
566,chitipa,-9.7024,33.2697,19.86,55,96,1.71,MW,1729982991
567,machico,32.7,-16.7667,20.35,79,75,7.2,PT,1729982992
568,puerto carreno,6.189,-67.4859,30.99,70,20,3.09,CO,1729982993
569,banjar,-8.19,114.9675,26.32,78,13,3.08,ID,1729982915
570,oleksandrivka,48.9634,32.2349,6.67,84,57,2.79,UA,1729982995
571,kananga,-5.8958,22.4178,20.69,91,62,0.98,CD,1729982996
572,porto novo,6.4965,2.6036,26.9,85,72,1.41,BJ,1729982717
573,santa cruz,-17.8,-63.1667,20.03,83,75,4.63,BO,1729982766
574,manteca,37.7974,-121.216,27.17,29,0,1.54,US,1729982870
575,torghay,49.6339,63.4981,7.38,65,100,2.65,KZ,1729983001
576,zaozersk,69.4005,32.4476,1.41,81,55,4.67,RU,1729983002
577,pavlodar,52.3,76.95,5.89,81,100,8.0,KZ,1729983003
578,ribeira brava,32.65,-17.0667,20.35,74,45,2.47,PT,1729983004
579,trondheim,63.4305,10.3951,12.03,71,100,3.07,NO,1729982943
580,linevo,54.4589,83.3764,5.51,97,100,3.21,RU,1729983006
581,pozo alcon,37.7026,-2.9337,9.52,71,98,1.39,ES,1729983008
582,alvesta,56.8993,14.5556,10.25,100,100,2.57,SE,1729983009
